Language ID	Family	Language name (-dialect)	Culture	ISO_code	Internal	Glottolog	Lat	Lon	Region	Description	Comments	languagename	db_Object
atim1239	Timor-Alor-Pantar	Abui-Atimelang		abz		atim1239	-8.226	124.6683	Alor		Atimelang and Fuimelang were two villages but have merged; Atimelang=Atengmelang	abuiatimelang	Abui-Atimelang
abui1241-fuime	Timor-Alor-Pantar	Abui-Fuimelang		abz			-8.226	124.6683	Alor			abuifuimelang	Abui-Fuimelang
abui1241-petle-o	Timor-Alor-Pantar	Abui-Petleng (Orthographic)		abz			-8.2144	124.593	Alor			abuipetlengorthographic	Abui-Petleng (Orthographic)
abui1241-petle	Timor-Alor-Pantar	Abui-Petleng		abz			-8.2144	124.593	Alor			abuipetleng	Abui-Petleng
abui1241-takal	Timor-Alor-Pantar	Abui-Takalelang	abui	abz		abui1241	-8.1887	124.6264	Alor			abuitakalelang	Abui-Takalelang
abui1241-takal-o	Timor-Alor-Pantar	Abui-Takalelang (Orthographic)		abz		abui1241	-8.1887	124.6264	Alor			abuitakalelangorthographic	Abui-Takalelang (Orthographic)
adan1251	Timor-Alor-Pantar	Adang-Lawahing		adn		adan1251	-8.2109	124.4272	Alor			adanglawahing	Adang-Lawahing
baka1276	Timor-Alor-Pantar	Blagar-Bakalang		beu		baka1276	-8.2634	124.2972	Pantar			blagarbakalang	Blagar-Bakalang
blag1240-bama	Timor-Alor-Pantar	Blagar-Bama		beu 			-8.2771	124.3013	Pantar			blagarbama	Blagar-Bama
pura1258	Timor-Alor-Pantar	Blagar-Pura	blag	beu 		pura1258	-8.2829	124.3307	Pura		includes Blagar Dolabang and Blagar Dadibira	blagarpura	Blagar-Pura
blag1240-kulij	Timor-Alor-Pantar	Blagar-Kulijahi		beu 			-8.2975	124.3033	Pantar			blagarkulijahi	Blagar-Kulijahi
blag1240-nule	Timor-Alor-Pantar	Blagar-Nule		beu 			-8.3672	124.2409	Pantar			blagarnule	Blagar-Nule
blag1240-tuntu	Timor-Alor-Pantar	Blagar-Tuntuli		beu			-8.2056	124.2907	Pantar			blagartuntuli	Blagar-Tuntuli
blag1240-warsa	Timor-Alor-Pantar	Blagar-Warsalelang		beu			-8.3252	124.3011	Pantar			blagarwarsalelang	Blagar-Warsalelang
bunakbobonaro	Timor-Alor-Pantar	Bunaq-Bobonaro	buna	bfn 			-8.4394	126.9821	Timor			bunaqbobonaro	Bunaq-Bobonaro
buna1278	Timor-Alor-Pantar	Bunak (Orthographic)		bfn 			-8.9912	125.2227	Timor		Orthographic data comes from Maliana table	bunakorthographic	Bunak (Orthographic)
bunaksuai	Timor-Alor-Pantar	Bunaq-Suai		bfn 			-9.318825	125.2625	Timor			bunaqsuai	Bunaq-Suai
buna1278-malia	Timor-Alor-Pantar	Bunaq-Maliana		bfn 			-8.9912	125.2227	Timor			bunaqmaliana	Bunaq-Maliana
dein1238	Timor-Alor-Pantar	Deing			deinx	dein1238	-8.3488	124.1304	Pantar			deing	Deing
fata1247	Timor-Alor-Pantar	Fataluku	fata	ddg		fata1247	-8.4394	126.9821	Timor			fataluku	Fataluku
hama1240	Timor-Alor-Pantar	Hamap-Moru		hmu		hama1240	-8.2668	124.5183	Alor			hamapmoru	Hamap-Moru
kabo1247	Timor-Alor-Pantar	Kabola-Monbang		klz		kabo1247	-8.1737	124.5546	Alor			kabolamonbang	Kabola-Monbang
kaer1234-o	Timor-Alor-Pantar	Kaera-Abangiwang (Orthographic)		jka		kaer1234	-8.4047	124.2175	Pantar			kaeraabangiwangorthographic	Kaera-Abangiwang (Orthographic)
kaer1234	Timor-Alor-Pantar	Kaera-Abangiwang	kaer	jka		kaer1234	-8.4047	124.2175	Pantar			kaeraabangiwang	Kaera-Abangiwang
kafo1240	Timor-Alor-Pantar	Kafoa-Probur		kpu		kafo1240	-8.3616	124.4478	Alor			kafoaprobur	Kafoa-Probur
kama1365	Timor-Alor-Pantar	Kamang-Atoitaa		woi		kama1365	-8.2543	124.8515	Alor			kamangatoitaa	Kamang-Atoitaa
kira1248	Timor-Alor-Pantar	Kiraman		kvd		kira1248	-8.3847	124.8334	Alor			kiraman	Kiraman
klon	Timor-Alor-Pantar	Klon		kyo		kelo1247	-8.4185	124.3418	Alor			klonbring	Klon
kelo1247-bring	Timor-Alor-Pantar	Klon-Bring		kyo		kelo1247	-8.4185	124.3418	Alor			klonbring	Klon-Bring
kuii1253	Timor-Alor-Pantar	Kui-Moru		kvd		kuii1253	-8.4351	124.5423	Alor			kuimoru	Kui-Moru
kula1280-lanto	Timor-Alor-Pantar	Kula-Lantoka		tpg		kula1280	-8.1753	125.099	Alor			kulalantoka	Kula-Lantoka
kula1280	Timor-Alor-Pantar	Kula		tpg		kula1280	-8.1753	125.099	Alor		Typological questionnaire is based on Kula-Tanglapui and Lantoka dialect. Other data are yet pending.	kula	Kula
maka1316	Timor-Alor-Pantar	Makasae	maka	mkz		maka1316	-8.4394	126.9821	Timor			makasae	Makasae
nede1245	Timor-Alor-Pantar	Nedebang		nec		nede1245	-8.2793	124.1969	Pantar			nedebang	Nedebang
rett1240	Timor-Alor-Pantar	Reta		ret		rett1240	-8.3224	124.3543	Alor			reta	Reta
alor1249-sar-nule	Timor-Alor-Pantar	Sar-Nule					-8.3775	124.2303	Pantar			sarnule	Sar-Nule
alor1249-sar-adiabang	Timor-Alor-Pantar	Sar-Adiabang			sarx		-8.326	124.228	Pantar			saradiabang	Sar-Adiabang
sawi1256	Timor-Alor-Pantar	Sawila		swt		sawi1256	-8.3433	125.0922	Alor			sawila	Sawila
teiw1235	Timor-Alor-Pantar	Teiwa-Lebang	teiw	twe		teiw1235	-8.257	124.2151	Pantar			teiwalebang	Teiwa-Lebang
kola1287	Timor-Alor-Pantar	Wersing-Kolana		kvw		kola1287	-8.284473700000001	125.0477418	Timor		Village Kolana Selatan, on OSM	wersingkolana	Wersing-Kolana
wers1238	Timor-Alor-Pantar	Wersing		kvw		wers1238	-8.2908	125.1234	Timor		Typological questionnaire is based on Wersing-Pureman dialect. Other data are  yet pending.	wersing	Wersing
lamm1241	Timor-Alor-Pantar	Western Pantar-Tubbe		lev		lamm1241	-8.4631	124.1274	Pantar			westernpantartubbe	Western Pantar-Tubbe
sika1262	Austronesian	Sika		ski 		sika1262	-8.6237	122.2084	Flores		Originally listed as Sika2	sika	Sika
cent2245-hewa	Austronesian	Hewa	hewa		hwa		-8.6109	122.6989	Flores			hewa	Hewa
lama1278	Austronesian	Lamaholot-Lewoingu	lewo		lmh_li		-8.4054	122.839	Flores		Lamaholotic: lama1292. lama1278 is Lamalera, which is spoken further west down the coast, and may actually be on the wrong Lamaholot-subclade.	lamaholotlewoingu	Lamaholot-Lewoingu
lamaholot-solor	Austronesian	Lamaholot-Solor		slp			-8.2622	123.0705	Solor		Lamaholot West Solor: west2543	lamaholotsolor	Lamaholot-Solor
adon1237	Austronesian	Lamaholot-Adonara	adon		lmh_ad	adon1237	-8.3757	123.2375	Adonara			lamaholotadonara	Lamaholot-Adonara
lh  	Austronesian	Lamaholot-Central Lembata	clem		lh  		-8.4723	123.4361	Lembata			lamaholotcentrallembata	Lamaholot-Central Lembata
sout2896-lerek	Austronesian	Lerek Lamaholot				sout2896	-8.5231	123.5454	Lembata		Lerek village on Lembata, according to OSM	lereklamaholot	Lerek Lamaholot
sout2896-kalik	Austronesian	Lembata-Kalikasa				sout2896	-8.448072	123.508306	Lembata		Coordinates taken from village of Kalikasa	lembatakalikasa	Lembata-Kalikasa
keda1252	Austronesian	Kedang	keda		ked	keda1252	-8.2423	123.7491	Lembata		Originally listed as Kedang3	kedang	Kedang
alor1247-baran	Austronesian	Alorese-Baranusa		aol 			-8.3613	124.0939	Pantar			aloresebaranusa	Alorese-Baranusa
alor1247	Austronesian	Alorese-Alor 		aol 		alor1247	-8.2555	124.4082	Alor			aloresealor	Alorese-Alor 
alor1247-kabir	Austronesian	Alorese-Kabir		aol 			-8.2563	124.2158	Pantar			aloresekabir	Alorese-Kabir
mamb1306	Austronesian	Mambai		mgm		mamb1306	-8.9918	125.5072	Timor		Mambae: mamb1306	mambai	Mambai
tuku1254	Austronesian	Tokodede		tkd		tuku1254	-8.6128	125.2017	Timor		Tukudede: tuku1254	tokodede	Tokodede
kema1243	Austronesian	Kemak		kem		kema1243	-8.9729	125.2074	Timor			kemak	Kemak
laka1255	Austronesian	Lakalei 		lka		laka1255	-8.7719	125.9262	Timor			lakalei	Lakalei 
idat1237	Austronesian	Idate		idt		idat1237	-8.7719	125.9262	Timor			idate	Idate
tetu1246	Austronesian	Tetun Dili 		tdt 		tetu1246	-8.5478	125.5442	Timor			tetundili	Tetun Dili 
tetu1245-suai	Austronesian	Tetun Terik-Suai 		tdt			-9.318825	125.2625	Timor			tetunteriksuai	Tetun Terik-Suai 
tetu1245-vique	Austronesian	Tetun Terik-Viqueque	tetu	tdt			-8.8608	126.3631	Timor			tetunterikviqueque	Tetun Terik-Viqueque
p-timo1261	Timor-Alor-Pantar	proto-TAP				timo1261						prototap	proto-TAP
p-alor1249	Timor-Alor-Pantar	proto-AP				alor1249						protoap	proto-AP
p-east2519	Timor-Alor-Pantar	proto-TIM				east2519						prototim	proto-TIM
p-aust1307	Austronesian	proto-AN				aust1307						protoan	proto-AN
p-mala1545	Austronesian	proto-MP				mala1545						protomp	proto-MP
