Language ID	Family	Language name (-dialect)	Culture	ISO_code	Internal	Glottolog	Lat	Lon	Region	Description	Comments	languagename	db_Object
dein1238	Timor-Alor-Pantar	Deing			deinx	dein1238	-8.3488	121.304	1Pantar, 1West			deing	Deing
nede1245	Timor-Alor-Pantar	Nedebang		nec		nede1245	-8.2793	121.969	1Pantar, 1West			nedebang	Nedebang
alor1249-besar	Timor-Alor-Pantar	Alor-Besar							alor1249	 -8			120		Alor ? Added by Gereon alorbesar 
alor1249-sar-n	Timor-Alor-Pantar	Sar-Nule					-8.3775	122.303	1Pantar, 1West			sarnule	Sar-Nule
alor1249-sar-a	Timor-Alor-Pantar	Sar-Adiabang			sarx		-8.326	124.228	1Pantar, 1West			saradiabang	Sar-Adiabang
teiw1235	Timor-Alor-Pantar	Teiwa-Lebang	teiw	twe		teiw1235	-8.257	122.151	1Pantar, 1West			teiwalebang	Teiwa-Lebang
lamm1241	Timor-Alor-Pantar	Western Pantar-Tubbe		lev		lamm1241	-8.4631	121.274	1Pantar, 1West			westernpantartubbe	Western Pantar-Tubbe
kaer1234-o	Timor-Alor-Pantar	Kaera-Abangiwang (Orthographic)		jka		kaer1234	-8.4047	122.175	1Pantar, 1West			kaeraabangiwangorthographic	Kaera-Abangiwang (Orthographic)
kaer1234	Timor-Alor-Pantar	Kaera-Abangiwang	kaer	jka		kaer1234	-8.4047	122.175	1Pantar, 1West			kaeraabangiwang	Kaera-Abangiwang
baka1276	Timor-Alor-Pantar	Blagar-Bakalang		beu		baka1276	-8.2634	122.972	1Pantar, 2East			blagarbakalang	Blagar-Bakalang
blag1240-bama	Timor-Alor-Pantar	Blagar-Bama		beu 			-8.2771	123.013	1Pantar, 2East			blagarbama	Blagar-Bama
blag1240	Timor-Alor-Pantar	Blagar		beu 			-8.2975	123.033	1Pantar, 2East			blagarkulijahi	Blagar
blag1240-kulij	Timor-Alor-Pantar	Blagar-Kulijahi		beu 			-8.2975	123.033	1Pantar, 2East			blagarkulijahi	Blagar-Kulijahi
blag1240-tuntu	Timor-Alor-Pantar	Blagar-Tuntuli		beu			-8.2056	122.907	1Pantar, 2East			blagartuntuli	Blagar-Tuntuli
blag1240-warsa	Timor-Alor-Pantar	Blagar-Warsalelang		beu			-8.3252	123.011	1Pantar, 2East			blagarwarsalelang	Blagar-Warsalelang
blag1240-nule	Timor-Alor-Pantar	Blagar-Nule		beu 			-8.3672	122.409	1Pantar,2East			blagarnule	Blagar-Nule
pura1258	Timor-Alor-Pantar	Blagar-Pura	blag	beu 		pura1258	-8.2829	123.307	2Pura		includes Blagar Dolabang and Blagar Dadibira	blagarpura	Blagar-Pura
rett1240	Timor-Alor-Pantar	Reta		ret		rett1240	-8.3224	123.543	2Reta			reta	Reta
kuii1253	Timor-Alor-Pantar	Kui-Moru		kvd		kuii1253	-8.4351	125.423	3Alor, 1West			kuimoru	Kui-Moru
adan1251	Timor-Alor-Pantar	Adang		adn		adan1251	-8.2109	124.272	3Alor, 1West			adang	Adang
adan1251-lawah	Timor-Alor-Pantar	Adang-Lawahing		adn		adan1251	-8.2109	124.272	3Alor, 1West			adanglawahing	Adang-Lawahing
hama1240	Timor-Alor-Pantar	Hamap-Moru		hmu		hama1240	-8.2668	125.183	3Alor, 1West			hamapmoru	Hamap-Moru
kabo1247	Timor-Alor-Pantar	Kabola-Monbang		klz		kabo1247	-8.1737	125.546	3Alor, 1West			kabolamonbang	Kabola-Monbang
kafo1240	Timor-Alor-Pantar	Kafoa-Probur		kpu		kafo1240	-8.3616	124.478	3Alor, 1West			kafoaprobur	Kafoa-Probur
kelo1247	Timor-Alor-Pantar	Klon		kyo		kelo1247	-8.4185	123.418	3Alor, 1West			klon	Klon
kelo1247-bring	Timor-Alor-Pantar	Klon-Bring		kyo		kelo1247	-8.4185	123.418	3Alor, 1West			klonbring	Klon-Bring
atim1239	Timor-Alor-Pantar	Abui-Atimelang		abz		atim1239	-8.226	126.683	3Alor, 2Central		"Atimelang and Fuimelang were two villages but have merged; Atimelang=Atengmelang"	abuiatimelang	Abui-Atimelang
abui1241-fuime	Timor-Alor-Pantar	Abui-Fuimelang		abz			-8.226	126.683	3Alor, 2Central			abuifuimelang	Abui-Fuimelang
abui1241-petle-o	Timor-Alor-Pantar	Abui-Petleng (Orthographic)		abz			-8.2144	124.59299999999900	3Alor, 2Central			abuipetlengorthographic	Abui-Petleng (Orthographic)
abui1241-petle	Timor-Alor-Pantar	Abui-Petleng		abz			-8.2144	124.59299999999900	3Alor, 2Central			abuipetleng	Abui-Petleng
abui1241-takal	Timor-Alor-Pantar	Abui-Takalelang	abui	abz		abui1241	-8.1887	126.264	3Alor, 2Central			abuitakalelang	Abui-Takalelang
abui1241	Timor-Alor-Pantar	Abui	abui	abz		abui1241	-8.1887	126.264	3Alor, 2Central			abuitakalelang	Abui
abui1241-takal-o	Timor-Alor-Pantar	Abui-Takalelang (Orthographic)		abz		abui1241	-8.1887	126.264	3Alor, 2Central			abuitakalelangorthographic	Abui-Takalelang (Orthographic)
kama1365	Timor-Alor-Pantar	Kamang-Atoitaa		woi		kama1365	-8.2543	128.515	3Alor, 2Central			kamangatoitaa	Kamang-Atoitaa
kira1248	Timor-Alor-Pantar	Kiraman		kvd		kira1248	-8.3847	128.334	3Alor, 2Central			kiraman	Kiraman
kola1287	Timor-Alor-Pantar	Wersing-Kolana		kvw		kola1287	-8.284473700000000	125.04774180000000	3Alor, 3East		Village Kolana Selatan, on OSM	wersingkolana	Wersing-Kolana
wers1238	Timor-Alor-Pantar	Wersing		kvw		wers1238	-8.2908	121.234	3Alor, 3East		Typological questionnaire is based on Wersing-Pureman dialect. Other data are  yet pending.	wersing	Wersing
kula1280-lanto	Timor-Alor-Pantar	Kula-Lantoka		tpg		kula1280	-8.1753	125.09899999999900	3Alor, 3East			kulalantoka	Kula-Lantoka
kula1280	Timor-Alor-Pantar	Kula		tpg		kula1280	-8.1753	125.09899999999900	3Alor, 3East		Typological questionnaire is based on Kula-Tanglapui and Lantoka dialect. Other data are yet pending.	kula	Kula
sawi1256	Timor-Alor-Pantar	Sawila		swt		sawi1256	-8.3433	120.922	3Alor, 3East			sawila	Sawila
buna1278-bobon	Timor-Alor-Pantar	Bunak-Bobonaro	buna	bfn 			-8.4394	129.821	4Timor, 2Central			bunakbobonaro	Bunak-Bobonaro
buna1278	Timor-Alor-Pantar	Bunak (Orthographic)		bfn 			-8.9912	122.227	4Timor, 2Central		Orthographic data comes from Maliana table	bunakorthographic	Bunak (Orthographic)
buna1278-suai	Timor-Alor-Pantar	Bunak-Suai		bfn 			-9.318825	122.625	4Timor, 2Central			bunaksuai	Bunak-Suai
buna1278-malia	Timor-Alor-Pantar	Bunaq-Maliana		bfn 			-8.9912	122.227	4Timor, 2Central			bunaqmaliana	Bunaq-Maliana
fata1247	Timor-Alor-Pantar	Fataluku	fata	ddg		fata1247	-8.4394	129.821	4Timor, 3East			fataluku	Fataluku
maka1316	Timor-Alor-Pantar	Makasae	maka	mkz		maka1316	-8.4394	129.821	4Timor, 3East			makasae	Makasae
p-timo1261	Timor-Alor-Pantar	proto-TAP				timo1261						prototap	proto-TAP
p-alor1249	Timor-Alor-Pantar	proto-AP				alor1249						protoap	proto-AP
p-east2519	Timor-Alor-Pantar	proto-TIM				east2519						prototim	proto-TIM
alor1247-baran	Austronesian	Alorese-Baranusa		aol 			-8.3613	120.939	1Pantar, 1West			aloresebaranusa	Alorese-Baranusa
alor1247-kabir	Austronesian	Alorese-Kabir		aol 			-8.2563	122.158	1Pantar, 1West			aloresekabir	Alorese-Kabir
alor1247	Austronesian	Alorese-Alor 		aol 		alor1247	-8.2555	124.082	3Alor, 1West			aloresealor	Alorese-Alor 
tetu1246	Austronesian	Tetun Dili 		tdt 		tetu1246	-8.5478	125.442	4Timor			tetundili	Tetun Dili 
mamb1306	Austronesian	Mambai		mgm		mamb1306	-8.9918	125.072	4Timor, 2Central		Mambae: mamb1306	mambai	Mambai
tuku1254	Austronesian	Tokodede		tkd		tuku1254	-8.6128	122.017	4Timor, 2Central		Tukudede: tuku1254	tokodede	Tokodede
kema1243	Austronesian	Kemak		kem		kema1243	-8.9729	122.074	4Timor, 2Central			kemak	Kemak
laka1255	Austronesian	Lakalei 		lka		laka1255	-8.7719	129.262	4Timor, 2Central			lakalei	Lakalei 
idat1237	Austronesian	Idate		idt		idat1237	-8.7719	129.262	4Timor, 2Central			idate	Idate
tetu1245	Austronesian	Tetun Terik		tdt			-9.318825	122.625	4Timor, 2Central			tetunteriksuai	Tetun Terik
tetu1245-suai	Austronesian	Tetun Terik-Suai 		tdt			-9.318825	122.625	4Timor, 2Central			tetunteriksuai	Tetun Terik-Suai 
tetu1245-vique	Austronesian	Tetun Terik-Viqueque	tetu	tdt			-8.8608	123.631	4Timor, 2Central			tetunterikviqueque	Tetun Terik-Viqueque
lama1278	Austronesian	Lamaholot-Lewoingu	lewo		lmh_li		-8.4054	128.39	5Flores, 1East		Lamaholotic: lama1292. lama1278 is Lamalera, which is spoken further west down the coast, and may actually be on the wrong Lamaholot-subclade.	lamaholotlewoingu	Lamaholot-Lewoingu
sika1262	Austronesian	Sika		ski 		sika1262	-8.6237	122.084	5Flores, 2Central		Originally listed as Sika2	sika	Sika
cent2245-hewa	Austronesian	Hewa	hewa		hwa		-8.6109	126.989	5Flores, 2Central			hewa	Hewa
lamaholot-solor	Austronesian	Lamaholot-Solor		slp			-8.2622	120.705	6Solor		Lamaholot West Solor: west2543	lamaholotsolor	Lamaholot-Solor
adon1237	Austronesian	Lamaholot-Adonara	adon		lmh_ad	adon1237	-8.3757	122.375	7Adonara			lamaholotadonara	Lamaholot-Adonara
lama1292	Austronesian	Lamaholot-?	clem		lh  		-8.4723	124.361	8Lembata			lamaholotcentrallembata	Lamaholot-?
lh  	Austronesian	Lamaholot-Central Lembata	clem		lh  		-8.4723	124.361	8Lembata			lamaholotcentrallembata	Lamaholot-Central Lembata
sout2896-lerek	Austronesian	Lerek Lamaholot				sout2896	-8.5231	125.454	8Lembata		Lerek village on Lembata, according to OSM	lereklamaholot	Lerek Lamaholot
sout2896-kalik	Austronesian	Lembata-Kalikasa				sout2896	-8.448072	123.508306	8Lembata		Coordinates taken from village of Kalikasa	lembatakalikasa	Lembata-Kalikasa
keda1252	Austronesian	Kedang	keda		ked	keda1252	-8.2423	127.491	8Lembata		Originally listed as Kedang3	kedang	Kedang
levu1239	Austronesian	levu	clem		lh  		-8.4723	124.361	8Lembata			lamaholotcentrallembata	levu
p-aust1307	Austronesian	proto-AN				aust1307						protoan	proto-AN
p-mala1545	Austronesian	proto-MP				mala1545						protomp	proto-MP
